City_ID,City,Lat,Lng,Max Temp,Humidity,Cloudiness,Wind Speed,Country,Date
0,port-aux-francais,-49.35,70.2167,2.18,84,100,9.76,TF,1686080890
1,blackmans bay,-43.0167,147.3167,10.97,92,7,3.07,AU,1686080891
2,carloforte,39.145,8.3058,20.31,76,23,1.67,IT,1686080891
3,yellowknife,62.456,-114.3525,10.29,100,100,6.17,CA,1686080775
4,banjar,-8.19,114.9675,24.39,91,58,1.99,ID,1686080892
5,tual,-5.6667,132.75,27.22,83,100,4.78,ID,1686080892
6,ulladulla,-35.35,150.4667,10.43,79,81,2.68,AU,1686080893
7,freetown,8.484,-13.2299,27.84,78,75,2.57,SL,1686080893
8,grytviken,-54.2811,-36.5092,2.45,95,80,1.73,GS,1686080894
9,san patricio,28.017,-97.5169,32.31,43,4,2.79,US,1686080895
10,ola,59.5833,151.2833,7.64,72,90,0.31,RU,1686080895
11,udachny,66.4167,112.4,1.36,80,7,2.97,RU,1686080896
12,waitangi,-43.9535,-176.5597,9.9,96,100,0.89,NZ,1686080896
13,mil'kovo,55.6078,37.7956,14.73,74,66,3.1,RU,1686080676
14,adamstown,-25.066,-130.1015,21.16,56,57,7.51,PN,1686080897
15,flying fish cove,-10.4217,105.6791,24.82,78,100,5.14,CX,1686080898
16,daru,-9.0763,143.2092,25.58,92,100,5.28,PG,1686080898
17,puerto ayora,-0.7393,-90.3518,27.98,94,79,4.47,EC,1686080898
18,east london,-33.0153,27.9116,17.06,36,0,2.51,ZA,1686080899
19,edinburgh of the seven seas,-37.0676,-12.3116,13.11,66,99,9.63,SH,1686080899
20,saipan,15.1355,145.701,27.58,100,75,6.69,MP,1686080900
21,nizhnesortymskiy,62.4397,71.7603,15.59,46,22,3.27,RU,1686080900
22,puerto natales,-51.7236,-72.4875,7.25,61,40,15.43,CL,1686080901
23,strezhevoy,60.7333,77.5889,17.81,68,74,3.03,RU,1686080901
24,darzab,35.9774,65.3783,22.74,17,16,2.97,AF,1686080902
25,ilebo,-4.3167,20.5833,23.28,85,23,0.34,CD,1686080902
26,klyuchi,52.2667,79.1667,22.2,48,56,3.49,RU,1686080903
27,flin flon,54.7682,-101.865,25.91,65,75,2.06,CA,1686080903
28,mlimba,-8.8,35.8167,21.84,90,94,0.14,TZ,1686080903
29,portland,45.5234,-122.6762,30.83,35,20,2.06,US,1686080462
30,iskateley,67.6803,53.1512,4.33,85,99,6.18,RU,1686080904
31,wailua homesteads,22.0669,-159.378,26.03,77,75,4.12,US,1686080905
32,iqaluit,63.7506,-68.5145,5.85,70,75,5.66,CA,1686080905
33,hermanus,-34.4187,19.2345,13.02,64,100,0.43,ZA,1686080906
34,keflavik,64.0049,-22.5624,6.95,75,75,4.12,IS,1686080907
35,avarua,-21.2078,-159.775,24.03,64,75,4.12,CK,1686080894
36,whitehorse,60.7161,-135.0538,8.78,81,100,3.6,CA,1686080510
37,thompson,55.7435,-97.8558,21.09,94,100,1.54,CA,1686080908
38,salinopolis,-0.6136,-47.3561,27.21,80,15,4.35,BR,1686080816
39,alice springs,-23.7,133.8833,15.75,63,59,3.6,AU,1686080909
40,ati,13.2154,18.3353,32.62,31,96,1.21,TD,1686080909
41,lorengau,-2.0226,147.2712,26.96,81,73,1.26,PG,1686080910
42,baoqing,46.3317,132.2111,12.52,89,82,2.12,CN,1686080910
43,luang namtha,20.9497,101.4011,23.15,100,100,0.25,LA,1686080911
44,bilibino,68.0546,166.4372,9.7,56,100,1.32,RU,1686080911
45,alpine,32.835,-116.7664,20.87,58,100,2.57,US,1686080912
46,pisco,-13.7,-76.2167,22.03,68,2,5.66,PE,1686080912
47,kihoku-cho,33.2559,132.6834,15.4,98,18,2.46,JP,1686080912
48,howrah,22.5892,88.3103,32.0,70,20,3.09,IN,1686080913
49,carbonear,47.7332,-53.2148,11.0,97,100,5.96,CA,1686080913
50,cidade velha,14.9167,-23.6167,26.26,69,0,2.57,CV,1686080914
51,al muharraq,26.2572,50.6119,33.1,57,0,1.03,BH,1686080914
52,port lincoln,-34.7333,135.8667,16.16,82,20,3.9,AU,1686080915
53,kapa'a,22.0752,-159.319,26.77,77,75,4.12,US,1686080915
54,vorgashor,67.5833,63.95,7.1,85,97,4.7,RU,1686080915
55,sitka,57.0531,-135.33,9.94,81,75,0.0,US,1686080648
56,kerikeri,-35.2268,173.9474,11.62,91,100,3.13,NZ,1686080693
57,tiksi,71.6872,128.8694,2.18,93,51,1.71,RU,1686080917
58,anadyr,64.75,177.4833,8.28,75,0,5.0,RU,1686080917
59,nava,28.4167,-100.7667,31.32,40,26,1.75,MX,1686080917
60,olonkinbyen,70.9221,-8.7187,1.27,70,100,2.06,SJ,1686080918
61,attapeu,14.8,106.8333,23.81,99,100,1.37,LA,1686080918
62,zaragoza,41.6561,-0.8773,27.23,44,0,5.66,ES,1686080894
63,tofol,5.3248,163.0078,28.43,76,21,3.41,FM,1686080919
64,bethel,41.3712,-73.414,23.36,52,0,3.09,US,1686080920
65,north bend,43.4065,-124.2243,27.36,67,0,5.14,US,1686080920
66,al burayqah,30.4062,19.5739,29.71,37,99,8.77,LY,1686080920
67,inongo,-1.95,18.2667,22.88,83,20,2.28,CD,1686080921
68,pailin,12.849,102.6093,23.37,97,100,1.42,KH,1686080921
69,tumbi,-5.0667,32.7333,20.11,88,40,0.0,TZ,1686080922
70,badger,64.8,-147.5333,23.54,37,20,0.0,US,1686080922
71,palo santo,-25.5633,-59.3378,28.57,51,1,3.32,AR,1686080922
72,dudinka,69.4058,86.1778,5.9,63,8,3.26,RU,1686080923
73,kodiak,57.79,-152.4072,6.73,100,100,5.66,US,1686080923
74,amga,60.8953,131.9608,10.84,80,90,1.04,RU,1686080924
75,happy valley-goose bay,53.3168,-60.3315,7.17,81,75,8.23,CA,1686080925
76,port moresby,-9.4431,147.1797,23.68,100,20,1.03,PG,1686080925
77,zyryanskoye,56.8306,86.6258,20.05,64,1,1.91,RU,1686080926
78,khost,33.3395,69.9204,24.82,48,0,0.58,AF,1686080926
79,hammerfest,70.6634,23.6821,5.25,70,75,3.6,NO,1686080926
80,harper,4.375,-7.7169,25.7,87,100,4.76,LR,1686080927
81,gwanda,-20.9333,29.0,14.39,93,0,2.97,ZW,1686080927
82,fort mcmurray,56.7268,-111.381,19.77,37,0,6.69,CA,1686080928
83,rawson,-43.3002,-65.1023,17.16,25,0,11.83,AR,1686080928
84,ribeira grande,38.5167,-28.7,20.22,64,40,9.83,PT,1686080928
85,alfredo v. bonfil,21.0833,-86.85,28.5,77,8,3.03,MX,1686080929
86,talcahuano,-36.7167,-73.1167,14.82,82,75,2.06,CL,1686080929
87,carnarvon,-24.8667,113.6333,19.15,56,84,4.53,AU,1686080930
88,port mathurin,-19.6833,63.4167,24.49,70,3,9.02,MU,1686080930
89,pecos,31.4229,-103.4932,29.46,34,40,2.06,US,1686080701
90,enewetak,11.3474,162.3373,27.88,81,92,6.27,MH,1686080931
91,port isabel,26.0734,-97.2086,32.05,71,40,6.26,US,1686080931
92,aljezur,37.3191,-8.8033,19.93,89,100,2.45,PT,1686080932
93,bor,56.3567,44.0669,12.96,60,100,2.34,RU,1686080932
94,hanzhong,33.0728,107.0303,19.57,68,100,0.8,CN,1686080932
95,sakaiminato,35.55,133.2333,14.99,100,0,2.57,JP,1686080933
96,as sulayyil,20.4607,45.5779,36.14,14,7,3.0,SA,1686080933
97,st. john's,47.5649,-52.7093,10.75,98,100,5.66,CA,1686080127
98,tura,25.5198,90.2201,26.9,55,3,2.04,IN,1686080934
99,hawaiian paradise park,19.5933,-154.9731,26.69,86,100,3.4,US,1686080934
100,nouadhibou,20.931,-17.0347,23.99,73,0,5.66,MR,1686080935
101,taybad,34.74,60.7756,27.66,14,64,3.74,IR,1686080935
102,ushuaia,-54.8,-68.3,6.79,87,20,8.23,AR,1686080674
103,hoemul-li,41.4339,129.67,14.23,69,24,1.81,KP,1686080936
104,hamilton,39.1834,-84.5333,30.43,37,0,7.72,US,1686080717
105,jamestown,42.097,-79.2353,22.51,28,0,6.17,US,1686080757
106,tosontsengel,48.7567,98.2839,10.78,69,4,1.06,MN,1686080937
107,kingston,17.997,-76.7936,31.53,70,20,8.75,JM,1686080724
108,vila velha,-20.3297,-40.2925,23.97,72,20,5.14,BR,1686080938
109,mount gambier,-37.8333,140.7667,12.31,89,99,4.86,AU,1686080938
110,nuku'alofa,-21.1333,-175.2,23.19,94,75,1.54,TO,1686080939
111,port alfred,-33.5906,26.891,17.61,37,0,3.38,ZA,1686080939
112,west island,-12.1568,96.8225,25.99,78,40,6.69,CC,1686080940
113,taiyuan,37.8694,112.5603,17.92,63,0,2.0,CN,1686080940
114,bredasdorp,-34.5322,20.0403,10.04,71,61,0.51,ZA,1686080941
115,margate,51.3813,1.3862,12.72,78,9,4.92,GB,1686080941
116,talnakh,69.4865,88.3972,5.67,81,58,3.09,RU,1686080941
117,ataq,14.5377,46.8319,26.55,59,5,4.02,YE,1686080942
118,trinity beach,-16.7888,145.6968,23.34,97,75,4.63,AU,1686080942
119,baihar,22.1,80.55,30.21,29,83,0.99,IN,1686080943
120,punta arenas,-53.15,-70.9167,7.06,65,75,8.75,CL,1686080944
121,minas de marcona,-15.2119,-75.1103,18.87,57,1,4.21,PE,1686080944
122,constantia,44.1833,28.65,14.38,67,90,4.43,RO,1686080945
123,haiku-pauwela,20.9219,-156.3051,26.76,63,20,8.23,US,1686080945
124,neiafu,-18.65,-173.9833,23.38,94,75,0.0,TO,1686080946
125,lompoc,34.6391,-120.4579,17.51,80,100,5.36,US,1686080946
126,faya-largeau,17.9257,19.1043,32.57,28,4,6.44,TD,1686080946
127,naze,28.3667,129.4833,22.51,95,97,3.53,JP,1686080947
128,alappuzha,9.49,76.3264,27.94,79,90,3.98,IN,1686080947
129,stanley,54.868,-1.6985,10.95,82,75,1.54,GB,1686080948
130,port elizabeth,-33.918,25.5701,10.16,87,0,1.03,ZA,1686080948
131,protaras,35.0125,34.0583,24.99,92,0,3.91,CY,1686080949
132,vadso,70.0744,29.7487,4.49,75,75,4.12,NO,1686080949
133,al fuwayliq,26.4432,43.2534,28.64,32,63,4.47,SA,1686080950
134,ancud,-41.8697,-73.8203,10.24,78,51,2.29,CL,1686080950
135,petropavlovsk-kamchatsky,53.0452,158.6483,10.33,50,75,7.0,RU,1686080951
136,cinco ranch,29.7388,-95.758,31.75,63,75,2.57,US,1686080785
137,chonchi,-42.6128,-73.8092,12.84,75,22,1.58,CL,1686080952
138,tazovsky,67.4667,78.7,10.59,70,89,4.46,RU,1686080707
139,uttarkashi,30.7333,78.45,18.14,54,7,3.26,IN,1686080953
140,codrington,-38.2667,141.9667,13.13,73,100,4.64,AU,1686080953
141,xinyi,22.373,110.9475,24.61,94,88,1.59,CN,1686080954
142,la huacana,18.9667,-101.8167,36.29,29,0,3.16,MX,1686080954
143,sao tome,0.3365,6.7273,25.6,80,100,4.2,ST,1686080955
144,ust-nera,64.5667,143.2,8.56,87,100,4.09,RU,1686080955
145,bryne,58.7354,5.6477,12.35,78,0,8.75,NO,1686080956
146,vetluzhskiy,58.3902,45.4654,9.14,90,82,1.93,RU,1686080956
147,ciamis,-7.3257,108.3534,22.94,98,100,0.52,ID,1686080957
148,bodaybo,57.8506,114.1933,6.02,97,100,1.25,RU,1686080957
149,georgetown,5.4112,100.3354,27.96,87,20,2.57,MY,1686080958
150,al khums,32.6486,14.2619,20.29,80,28,5.11,LY,1686080665
151,atafu village,-8.5421,-172.5159,28.02,77,54,4.88,TK,1686080959
152,longyearbyen,78.2186,15.6401,3.91,75,20,4.63,SJ,1686080959
153,borogontsy,62.6683,131.1683,11.23,77,88,3.21,RU,1686080960
154,lerwick,60.1545,-1.1494,11.0,78,100,3.17,GB,1686080960
155,quellon,-43.1167,-73.6167,10.14,87,75,2.06,CL,1686080960
156,uturoa,-16.7333,-151.4333,26.42,72,89,7.02,PF,1686080961
157,margaret river,-33.95,115.0667,11.89,70,95,8.6,AU,1686080961
158,sanger,36.708,-119.556,25.45,52,100,3.09,US,1686080933
159,carutapera,-1.195,-46.02,26.79,82,54,3.29,BR,1686080962
160,lebu,-37.6167,-73.65,13.24,81,100,3.16,CL,1686080962
161,lata,40.1629,-8.3327,19.52,74,100,2.74,PT,1686080963
162,albany,42.6001,-73.9662,18.77,66,95,0.89,US,1686080692
163,invercargill,-46.4,168.35,2.08,91,52,1.74,NZ,1686080964
164,inari,68.906,27.0288,7.11,64,100,1.4,FI,1686080964
165,esfarayen,37.0765,57.5101,19.81,44,41,3.44,IR,1686080965
166,tarko-sale,64.9225,77.785,15.39,50,56,3.89,RU,1686080965
167,el bauga,18.262,33.9081,30.96,42,99,2.71,SD,1686080966
168,nikol'sk,53.7189,46.0712,9.88,85,63,1.73,RU,1686080966
169,antsiranana,-12.2787,49.2917,24.78,82,38,7.79,MG,1686080967
170,kozienice,51.5829,21.5478,19.44,90,100,1.66,PL,1686080741
171,passos,-20.7189,-46.6097,19.35,59,0,1.9,BR,1686080967
172,labytnangi,66.6572,66.4183,10.4,71,74,5.41,RU,1686080968
173,machico,32.7,-16.7667,23.34,91,40,6.17,PT,1686080969
174,trairi,-3.2778,-39.2689,25.57,87,3,4.04,BR,1686080969
175,mastic beach,40.7668,-72.8521,23.42,58,0,3.09,US,1686080970
176,ketchikan,55.3422,-131.6461,13.26,67,100,3.09,US,1686080971
177,essaouira,31.5125,-9.77,20.47,74,100,2.92,MA,1686080971
178,umm kaddadah,13.6017,26.6876,26.95,58,94,2.86,SD,1686080971
179,kone,-21.0595,164.8658,17.85,71,20,2.2,NC,1686080972
180,zarghun shahr,32.8473,68.4457,20.0,23,0,4.8,AF,1686080972
181,papatowai,-46.5619,169.4708,4.71,86,46,1.92,NZ,1686080973
182,burang,30.25,81.1667,0.22,84,49,1.6,CN,1686080973
183,okhotsk,59.3833,143.3,6.58,70,50,2.44,RU,1686080910
184,quelimane,-17.8786,36.8883,25.97,78,0,2.57,MZ,1686080974
185,plainfield,40.6168,-74.4173,28.3,35,40,0.89,US,1686080974
186,steamboat springs,40.485,-106.8317,25.18,27,40,2.57,US,1686080718
187,santiago de cao,-7.9589,-79.2392,25.07,69,34,5.14,PE,1686080975
188,el quebrachal,-25.2833,-64.0667,27.46,49,17,7.2,AR,1686080976
189,brisas de zicatela,15.8369,-97.0419,30.86,61,31,3.68,MX,1686080976
190,castillos,-34.1667,-53.8333,18.91,62,93,2.45,UY,1686080977
191,mugia,43.1041,-9.2179,22.17,75,100,2.71,ES,1686080977
192,boyolangu,-8.1181,111.8935,23.68,94,100,2.74,ID,1686080977
193,sao joao da barra,-21.6403,-41.0511,25.05,70,4,5.66,BR,1686080978
194,yanchep,-31.55,115.6833,8.07,64,100,7.74,AU,1686080978
195,qaqortoq,60.7167,-46.0333,2.79,91,100,1.51,GL,1686080978
196,barma,8.35,-11.3333,21.38,99,100,0.77,SL,1686080979
197,lihue,21.9789,-159.3672,26.36,72,75,4.12,US,1686080979
198,feijo,-8.1642,-70.3536,30.45,58,31,1.24,BR,1686080980
199,ono-hara,34.2833,132.2667,17.95,88,75,2.57,JP,1686080980
200,san luis de la paz,21.3,-100.5167,28.12,32,45,4.56,MX,1686080981
201,phalia,32.4297,73.5775,28.95,44,0,3.21,PK,1686080982
202,sittwe,20.15,92.9,28.15,83,100,1.94,MM,1686080982
203,inirida,3.8653,-67.9239,25.63,83,100,1.73,CO,1686080982
204,san antonio de pale,-1.4014,5.6325,25.4,83,99,4.88,GQ,1686080983
205,hasaki,35.7333,140.8333,19.01,94,91,4.57,JP,1686080983
206,afaahiti,-17.75,-149.2833,26.93,76,95,7.03,PF,1686080984
207,siebnen,47.1755,8.8987,21.0,80,13,1.95,CH,1686080984
208,tetyushi,54.9382,48.8366,12.48,74,93,3.78,RU,1686080985
209,kailua-kona,19.6406,-155.9956,26.98,78,20,4.63,US,1686080890
210,oranjemund,-28.55,16.4333,13.1,83,0,3.78,NA,1686080985
211,dauphin,51.1494,-100.0502,33.08,40,0,4.12,CA,1686080986
212,christchurch,-43.5333,172.6333,-1.89,100,100,1.03,NZ,1686080450
213,inarajan village,13.2736,144.7484,28.54,91,100,6.06,GU,1686080986
214,codajas,-3.8367,-62.0569,30.47,62,77,1.35,BR,1686080987
215,midvagur,62.0511,-7.1939,9.46,100,100,2.57,FO,1686080988
216,lockwood,45.8191,-108.4149,27.94,54,40,4.63,US,1686080988
217,boumahra ahmed,36.4583,7.5139,18.72,91,8,1.33,DZ,1686080989
218,kijang,35.2442,129.2139,15.85,84,72,2.23,KR,1686080989
219,al bayda',32.7627,21.7551,19.8,47,1,5.49,LY,1686080990
220,hirara,24.8,125.2833,25.92,100,20,3.6,JP,1686080990
221,lerma,42.0261,-3.7598,20.31,59,96,2.21,ES,1686080991
222,bubaque,11.2833,-15.8333,27.61,73,80,7.92,GW,1686080992
223,gulu,2.7746,32.299,19.11,81,4,2.04,UG,1686080992
224,esil,51.9556,66.4042,25.09,30,23,4.26,KZ,1686080993
225,rathdrum,47.8137,-116.892,29.85,21,0,1.54,US,1686080993
226,ocean city,39.2776,-74.5746,28.1,47,95,3.13,US,1686080994
227,saldanha,-33.0117,17.9442,9.03,68,0,2.83,ZA,1686080994
228,chibougamau,49.9168,-74.3659,15.79,27,75,7.72,CA,1686080995
229,axim,4.8699,-2.2405,26.59,82,100,2.77,GH,1686080995
230,taltal,-25.4,-70.4833,17.14,74,24,1.28,CL,1686080421
231,angra do heroismo,38.65,-27.2167,17.34,88,40,13.34,PT,1686080755
232,luderitz,-26.6481,15.1594,12.3,89,0,5.39,NA,1686080997
233,balakovo,52.0278,47.8007,14.46,66,75,2.93,RU,1686080997
234,greymouth,-42.4667,171.2,4.61,84,0,2.75,NZ,1686080997
235,tengrela,10.4869,-6.4097,28.52,56,76,1.87,CI,1686080998
236,huaicheng,23.9051,112.1931,24.33,96,100,0.84,CN,1686080998
237,munxar,36.0307,14.2348,20.77,85,100,8.68,MT,1686080999
238,aasiaat,68.7098,-52.8699,-0.35,84,100,2.88,GL,1686080999
239,winnemucca,40.973,-117.7357,27.03,28,0,4.63,US,1686081000
240,shimoda,34.6667,138.95,16.72,94,100,1.39,JP,1686081000
241,aoulef,26.9667,1.0833,35.43,13,98,3.24,DZ,1686081000
242,nar'yan-mar,67.6713,53.087,4.37,85,98,6.24,RU,1686081001
243,mossel bay,-34.1831,22.146,11.96,57,0,3.51,ZA,1686081001
244,la passe,45.5549,-0.8967,24.13,64,30,3.63,FR,1686081002
245,vilyuchinsk,52.9306,158.4028,11.15,82,85,2.96,RU,1686081002
246,navolato,24.7672,-107.6944,33.12,39,22,7.23,MX,1686081003
247,usogorsk,63.4106,48.6872,5.55,90,18,2.52,RU,1686081003
248,dasnapur,19.654,78.5121,34.81,26,33,1.68,IN,1686081004
249,hamada,34.8833,132.0833,15.87,91,36,2.77,JP,1686081005
250,touros,-5.1989,-35.4608,26.92,76,10,4.75,BR,1686081005
251,eqbaliyeh,35.3022,51.5358,29.9,38,98,4.4,IR,1686081006
252,teguise,29.0605,-13.564,22.12,78,40,9.26,ES,1686081006
253,tolanaro,-25.0319,46.9987,19.99,93,13,2.77,MG,1686081007
254,ilulissat,69.2167,-51.1,-0.99,100,75,2.57,GL,1686081008
255,ndioum,16.5129,-14.6471,38.94,11,100,3.98,SN,1686081008
256,arraial do cabo,-22.9661,-42.0278,22.98,73,0,4.12,BR,1686081009
257,murzzuschlag,47.6,15.6833,14.94,100,100,1.14,AT,1686081009
258,hithadhoo,-0.6,73.0833,28.4,76,13,3.59,MV,1686081010
259,luganville,-15.5333,167.1667,24.6,83,92,4.94,VU,1686081010
260,jining,35.405,116.5814,22.94,62,100,3.85,CN,1686081011
261,mpongwe,-13.5091,28.155,16.11,51,0,2.24,ZM,1686081012
262,hodmezovasarhely,46.4167,20.3333,19.46,81,89,2.82,HU,1686081012
263,bam,29.106,58.357,32.31,22,98,4.09,IR,1686081013
264,sinabang,2.4803,96.3801,26.56,80,100,0.59,ID,1686081013
265,argo,37.6333,22.7333,20.99,61,37,0.81,GR,1686081014
266,antsohihy,-14.8796,47.9875,24.27,64,5,3.27,MG,1686081014
267,buka,40.8108,69.1986,25.91,16,20,1.63,UZ,1686081015
268,champerico,14.3,-91.9167,33.3,66,100,3.85,GT,1686081015
269,toretsk,48.3987,37.8479,15.42,56,71,2.58,UA,1686081016
270,south venice,27.0531,-82.4243,32.37,63,0,4.63,US,1686081016
271,tazacorte,28.629,-17.9293,25.54,89,40,6.17,ES,1686081016
272,salalah,17.0151,54.0924,30.05,79,20,3.09,OM,1686081017
273,nikolayevsk-on-amure,53.1406,140.73,12.18,85,20,1.16,RU,1686081017
274,manokwari,-0.8667,134.0833,26.36,77,99,2.26,ID,1686081018
275,kapuskasing,49.4169,-82.4331,19.05,27,20,5.14,CA,1686081018
276,tabas,33.5959,56.9244,36.12,14,61,2.06,IR,1686081019
277,isafjordur,66.0755,-23.124,5.97,74,60,2.19,IS,1686081019
278,dhuusamarreeb,5.535,46.3861,28.18,57,99,9.67,SO,1686081020
279,palmas,-10.2128,-48.3603,31.93,43,40,2.06,BR,1686081021
280,alofi,-19.0595,-169.9187,24.94,83,99,5.14,NU,1686081021
281,aridaia,40.9731,22.0564,18.97,81,98,0.84,GR,1686081022
282,mount isa,-20.7333,139.5,12.87,82,63,1.54,AU,1686081022
283,andkhoy,36.9529,65.1238,29.46,9,89,3.39,AF,1686081022
284,yarmouth,41.7057,-70.2286,24.26,56,0,3.6,US,1686081023
285,yuzhno-kurilsk,44.0306,145.8556,10.27,95,100,2.04,RU,1686081023
286,whangarei,-35.7317,174.3239,13.46,83,100,5.58,NZ,1686081024
287,bodo,67.28,14.405,5.02,88,75,5.14,NO,1686081024
288,nemuro,43.3236,145.575,10.55,94,100,3.36,JP,1686081025
289,lander,42.833,-108.7307,26.73,52,0,1.54,US,1686081026
290,kagoro,9.6,8.3833,22.16,90,85,1.62,NG,1686081026
291,lao cai,22.4833,103.95,24.45,97,87,0.4,VN,1686081026
292,khandyga,62.6667,135.6,13.23,79,81,0.54,RU,1686081027
293,fortuna,40.5982,-124.1573,18.29,80,20,3.6,US,1686081027
294,newman,37.3138,-121.0208,25.69,58,11,4.02,US,1686081028
295,baise city,23.8997,106.6133,23.97,89,51,1.27,CN,1686081028
296,smithers,54.7804,-127.1743,13.18,44,0,2.06,CA,1686080765
297,puerto santa,-8.9906,-78.6456,24.12,72,30,4.13,PE,1686081029
298,chui,-33.6971,-53.4616,16.75,67,37,3.42,UY,1686081030
299,acarau,-2.8856,-40.12,27.25,78,0,5.22,BR,1686081030
300,ta`u,-14.2336,-169.5144,27.25,77,96,10.4,AS,1686081030
301,la'ie,21.6477,-157.9253,27.98,72,55,3.58,US,1686081031
302,montlouis-sur-loire,47.3833,0.8333,23.15,64,0,1.54,FR,1686081031
303,qamdo,31.1667,97.2333,2.93,63,6,1.9,CN,1686081032
304,nogliki,51.8333,143.1667,6.7,74,99,1.32,RU,1686081032
305,uacu cungo,-11.3634,15.1208,17.01,46,75,0.36,AO,1686081033
306,sal rei,16.1833,-22.9167,27.11,69,20,3.09,CV,1686081033
307,okha,53.5739,142.9478,6.92,87,64,3.56,RU,1686081034
308,velyka mykhaylivka,47.0794,29.8514,16.07,52,78,2.69,UA,1686081034
309,cabanas,22.9758,-82.9219,29.15,64,100,0.83,CU,1686081035
310,alta,69.9689,23.2717,5.59,64,0,3.09,NO,1686081035
311,pudozh,61.8099,36.5345,6.18,74,20,1.91,RU,1686081036
312,kalevala,65.2,31.1667,6.48,62,98,1.72,RU,1686081036
313,dunedin,-45.8742,170.5036,7.11,80,98,1.34,NZ,1686080899
314,puerto armuelles,8.2833,-82.8667,31.99,68,98,1.34,PA,1686081037
315,taulaga,-11.0553,-171.0883,28.09,79,98,7.47,AS,1686081037
316,sorong,-0.8833,131.25,25.72,88,64,2.96,ID,1686081038
317,utrik,11.2278,169.8474,27.52,84,85,9.14,MH,1686081038
318,maitum,6.0392,124.4986,25.68,83,94,1.69,PH,1686081039
319,selfoss,63.9331,-20.9971,8.91,65,23,4.83,IS,1686081039
320,tezu,27.9167,96.1667,27.79,40,31,1.99,IN,1686081040
321,fada,9.5667,8.3,22.24,91,85,1.42,NG,1686081040
322,les cayes,18.2,-73.75,29.92,69,100,4.08,HT,1686081040
323,garissa,-0.4536,39.6401,25.12,69,21,7.93,KE,1686081041
324,susuman,62.7833,148.1667,11.36,62,35,1.46,RU,1686081041
325,saryozek,44.3583,77.9753,19.22,44,71,2.42,KZ,1686081042
326,tianfu,37.1936,122.0511,17.0,92,100,1.93,CN,1686081042
327,hilo,19.7297,-155.09,27.38,77,84,3.58,US,1686081042
328,macau,22.2006,113.5461,28.85,79,40,5.14,MO,1686080986
329,pathein,16.7833,94.7333,25.34,90,100,1.43,MM,1686081043
330,torghay,49.6339,63.4981,24.17,37,42,4.34,KZ,1686081044
331,sibolga,1.7427,98.7792,24.67,86,100,1.39,ID,1686081044
332,comandante fontana,-25.3345,-59.6821,28.67,52,5,3.31,AR,1686081044
333,brookings,44.3114,-96.7984,32.32,38,20,3.09,US,1686081045
334,richards bay,-28.783,32.0377,19.1,77,0,6.27,ZA,1686081045
335,toliara,-23.35,43.6667,22.1,58,0,4.09,MG,1686081046
336,cozumel,20.5083,-86.9458,30.53,84,6,3.58,MX,1686080953
337,henley-on-thames,51.5333,-0.9,15.24,66,100,5.66,GB,1686081046
338,cabo san lucas,22.8909,-109.9124,33.61,60,0,5.91,MX,1686080884
339,salahonda,2.1019,-78.7217,27.88,76,28,4.15,CO,1686081047
340,college,64.8569,-147.8028,24.7,37,20,0.45,US,1686081048
341,hit,33.6416,42.8251,33.13,22,2,1.05,IQ,1686081048
342,khabarovsk,48.4808,135.0928,13.89,82,0,2.0,RU,1686081048
343,mournies,35.4764,24.0092,23.24,88,20,2.06,GR,1686081049
344,kambove,-10.8764,26.5969,16.37,51,0,1.8,CD,1686081049
345,sisimiut,66.9395,-53.6735,-0.14,82,99,4.01,GL,1686081050
346,mbandaka,0.0487,18.2603,23.06,86,34,1.4,CD,1686081050
347,banfora,10.6333,-4.7667,31.45,47,73,1.98,BF,1686081051
348,westport,41.1415,-73.3579,24.38,52,0,2.06,US,1686081051
349,zunyi,27.6867,106.9072,18.53,92,22,0.92,CN,1686081052
350,baruun-urt,46.6806,113.2792,10.8,36,6,6.3,MN,1686081052
351,galliano,29.4422,-90.2992,26.11,60,100,1.3,US,1686081052
352,pemba,-12.974,40.5178,25.39,83,40,3.09,MZ,1686081053
353,katabu,-4.9333,122.5167,22.22,94,10,1.31,ID,1686081053
354,swakopmund,-22.6833,14.5333,13.88,85,0,1.37,NA,1686081054
355,mount pearl,47.5166,-52.7813,10.29,98,100,6.17,CA,1686081054
356,lensk,60.7253,114.9278,3.22,91,41,1.97,RU,1686080907
357,nabire,-3.3667,135.4833,24.35,90,100,0.94,ID,1686081055
358,bangui,4.3612,18.555,24.97,70,56,1.27,CF,1686081055
359,aripuana,-9.1667,-60.6333,29.4,62,97,0.91,BR,1686081014
360,likiep,9.8251,169.3107,27.67,84,72,8.21,MH,1686081057
361,urucara,-2.5364,-57.76,29.47,67,100,1.46,BR,1686081057
362,fort st. john,56.2499,-120.8529,16.94,36,20,6.17,CA,1686081058
363,muriti,-1.9833,32.9167,24.07,62,60,2.72,TZ,1686081058
364,fale old settlement,-9.3852,-171.2468,28.18,78,11,5.88,TK,1686081058
365,taunsa,30.7048,70.6505,29.79,46,1,4.52,PK,1686081059
366,meadow lakes,61.6247,-149.6011,13.69,80,75,1.79,US,1686081059
367,bhamo,24.2667,97.2333,24.85,88,24,0.89,MM,1686081060
368,svetlyy,54.675,20.1347,16.09,69,0,2.76,RU,1686081061
369,longonjo,-12.9067,15.2533,17.29,42,5,1.52,AO,1686081061
370,kelso,46.1468,-122.9084,29.34,40,0,4.63,US,1686081056
371,pangody,65.85,74.4859,14.2,52,55,4.15,RU,1686081062
372,sechura,-5.5569,-80.8222,28.05,60,24,5.9,PE,1686081063
373,kuching,1.55,110.3333,26.18,95,20,0.51,MY,1686081064
374,katsuura,35.1333,140.3,18.4,94,98,3.09,JP,1686081064
375,selizharovo,56.8519,33.4487,13.52,66,99,2.32,RU,1686081065
376,fallon,39.4735,-118.7774,24.14,50,40,1.54,US,1686081065
377,inda silase,14.1031,38.2829,18.44,70,85,0.96,ET,1686081067
378,lae,-6.7221,146.9847,23.37,81,100,3.08,PG,1686081067
379,broken hill,-31.95,141.4333,16.6,87,100,4.15,AU,1686081068
380,krasnogorskoye,52.2953,86.1979,16.15,84,3,1.93,RU,1686081068
381,gisborne,-38.6533,178.0042,12.62,84,100,7.12,NZ,1686080853
382,crane,31.3974,-102.3501,28.28,32,97,3.54,US,1686081069
383,taroa,8.7058,171.2275,28.04,84,98,8.31,MH,1686081070
384,waingapu,-9.6567,120.2641,23.41,88,50,2.75,ID,1686081070
385,nelson bay,-32.7167,152.15,13.89,98,1,1.79,AU,1686081071
386,colonia,50.9333,6.95,22.68,45,0,1.54,DE,1686081071
387,saint-pierre,-21.3393,55.4781,21.82,68,20,4.12,RE,1686081072
388,kolyshley,52.7005,44.5367,12.4,69,65,2.11,RU,1686081072
389,lodja,-3.4833,23.4333,24.08,70,52,0.25,CD,1686081072
390,merizo village,13.2658,144.6691,28.31,91,100,5.91,GU,1686081073
391,acapulco de juarez,16.8634,-99.8901,31.9,58,0,4.63,MX,1686080840
392,porbandar,21.6422,69.6093,28.65,82,2,5.84,IN,1686081074
393,masina,-4.3836,15.3914,26.48,70,85,1.57,CD,1686081074
394,tuba city,36.135,-111.2399,28.77,13,90,8.7,US,1686081075
395,polyarnyy,69.1989,33.4478,3.84,72,100,6.29,RU,1686081075
396,illizi,26.4833,8.4667,32.89,20,100,7.73,DZ,1686081076
397,maroantsetra,-15.4333,49.7333,23.51,87,48,2.4,MG,1686081076
398,puerto deseado,-47.7503,-65.8938,10.88,38,0,13.08,AR,1686081077
399,monterey,36.2505,-121.2516,14.95,64,100,2.95,US,1686080793
400,yemetsk,63.4721,41.7941,3.3,79,30,2.0,RU,1686081077
401,mabaruma,8.2,-59.7833,28.62,76,17,2.5,GY,1686081078
402,yatou,37.15,122.3833,16.98,94,100,2.2,CN,1686081078
403,the pas,53.8251,-101.2541,24.01,73,100,4.12,CA,1686081079
404,rio san juan,19.6439,-70.0763,35.09,68,46,6.69,DO,1686081079
405,san luis de la loma,17.2706,-100.8939,31.86,52,0,3.87,MX,1686081080
406,kurumkan,54.3,110.3,5.36,67,9,1.74,RU,1686081080
407,peace river,56.2501,-117.286,18.17,34,20,8.23,CA,1686081081
408,juneau,58.3019,-134.4197,10.68,96,100,4.63,US,1686081064
409,lucapa,-8.4192,20.7447,25.3,34,94,0.94,AO,1686081082
410,grand baie,-20.0182,57.5802,24.26,76,15,0.89,MU,1686081082
411,sidareja,-7.4846,108.7923,23.57,97,99,0.1,ID,1686081083
412,val-d'or,48.1002,-77.7828,19.05,26,75,9.77,CA,1686080844
413,new norfolk,-42.7826,147.0587,11.62,88,39,0.8,AU,1686081083
414,bishkek,42.87,74.59,24.11,33,22,3.65,KG,1686081028
415,olinala,17.8333,-98.85,31.98,32,0,1.9,MX,1686081085
416,pimentel,-6.8367,-79.9342,29.16,58,0,5.66,PE,1686081085
417,imbituba,-28.24,-48.6703,19.53,81,0,3.71,BR,1686081066
418,arar,30.9753,41.0381,32.01,12,20,5.14,SA,1686081015
419,conde,-7.2597,-34.9075,28.7,58,20,4.63,BR,1686081086
420,fort bragg,35.139,-79.006,30.46,49,40,5.14,US,1686081087
421,mongo,12.1844,18.693,27.52,62,100,3.47,TD,1686081087
422,segre,47.6833,-0.8667,23.08,64,54,4.62,FR,1686081088
423,bakanas,44.8081,76.2772,26.25,27,82,5.46,KZ,1686081088
424,obo,5.3998,26.4869,20.1,98,100,1.08,CF,1686081088
425,holualoa,19.6228,-155.9522,25.43,79,20,4.63,US,1686081089
426,magnitogorsk,53.4186,59.0472,18.2,88,100,1.0,RU,1686080791
427,sompeta,18.9333,84.6,28.47,74,13,3.12,IN,1686081090
428,pedro ii,-4.4247,-41.4586,27.03,56,54,2.09,BR,1686080932
429,pindushi,62.9152,34.58,5.76,68,26,1.03,RU,1686081090
430,darwin,-12.4611,130.8418,22.99,88,5,2.57,AU,1686081091
431,san francisco telixtlahuaca,17.3,-96.9,27.86,35,15,2.82,MX,1686081091
432,shingu,33.7333,135.9833,18.9,95,100,3.5,JP,1686081092
433,zheshart,62.0731,49.5733,5.96,89,36,1.97,RU,1686081093
434,kourou,5.1552,-52.6478,30.03,76,58,3.3,GF,1686081093
435,nadi,-17.8,177.4167,23.0,83,100,2.57,FJ,1686081094
436,puerto baquerizo moreno,-0.9,-89.6,25.53,80,68,6.98,EC,1686081094
437,fiche,9.8,38.7333,12.75,73,96,1.4,ET,1686081095
438,palasa,18.7667,84.4167,28.15,72,31,2.36,IN,1686081095
439,murzuq,25.9155,13.9184,33.61,15,98,7.29,LY,1686081096
440,beruniy,41.6911,60.7525,27.98,36,0,2.06,UZ,1686081096
441,kosh-agach,50.0,88.6667,15.3,42,14,1.11,RU,1686081097
442,odda,60.0691,6.5457,14.69,73,21,1.62,NO,1686081097
443,riberalta,-10.9833,-66.1,31.11,62,75,3.09,BO,1686081097
444,nelson,-41.2833,173.2833,4.05,82,7,2.35,NZ,1686080883
445,medowie,-32.7333,151.8667,13.72,94,40,0.0,AU,1686081098
446,ust-tsilma,65.441,52.1498,5.4,79,84,2.71,RU,1686081099
447,surgut,61.25,73.4167,13.1,66,0,2.0,RU,1686080963
448,port saint john's,-31.6229,29.5448,16.76,67,0,3.14,ZA,1686081100
449,leh,34.1667,77.5833,6.87,63,95,2.03,IN,1686081100
450,aquin,18.2833,-73.4,29.74,72,99,3.6,HT,1686081101
451,charlottetown,46.2352,-63.1267,11.42,92,100,5.14,CA,1686081101
452,kruisfontein,-34.0033,24.7314,11.17,57,0,1.79,ZA,1686081101
453,korla,41.7597,86.1469,25.23,24,14,3.03,CN,1686081102
454,sim,54.993,57.6982,16.73,99,100,2.04,RU,1686081103
455,kangding,30.0513,101.9603,13.18,99,95,1.33,CN,1686081103
456,beira,-19.8436,34.8389,24.05,100,20,2.57,MZ,1686081104
457,abancay,-13.6339,-72.8814,21.3,41,14,2.76,PE,1686081104
458,mejit,10.2753,170.8646,27.67,85,39,8.47,MH,1686081105
459,dingalan,15.3897,121.3929,25.73,89,83,0.87,PH,1686081105
460,bikenibeu village,1.3673,173.1241,28.98,79,20,3.09,KI,1686081105
461,bel ombre,-4.6167,55.4167,26.91,83,40,4.12,SC,1686081106
462,queenstown,-31.8976,26.8753,9.56,30,0,2.82,ZA,1686081107
463,hailey,43.5196,-114.3153,26.6,50,0,2.57,US,1686081075
464,at taj,24.2049,23.2857,34.52,20,11,2.82,LY,1686081108
465,al qadarif,14.0349,35.3834,30.81,42,43,3.02,SD,1686081108
466,tangalle,6.024,80.7911,26.64,86,100,5.6,LK,1686081109
467,kargopol',61.5071,38.9456,5.29,86,5,2.12,RU,1686081110
468,rochlitz,51.05,12.8,17.09,90,88,2.19,DE,1686081110
469,nova vicosa,-17.8919,-39.3719,23.3,69,52,4.6,BR,1686080860
470,eirunepe,-6.6603,-69.8736,28.35,76,83,0.85,BR,1686081111
471,gandiaye,14.2333,-16.2667,38.06,31,10,6.08,SN,1686081111
472,remire-montjoly,4.9167,-52.2667,30.02,66,20,6.69,GF,1686081112
473,mahibadhoo,3.7833,72.9667,28.67,76,100,5.78,MV,1686081112
474,albertina,-22.2008,-46.6158,16.95,68,0,0.68,BR,1686081112
475,cody,44.5263,-109.0565,27.24,43,0,1.79,US,1686081104
476,coquimbo,-29.9533,-71.3436,15.85,77,20,4.63,CL,1686080844
477,ulsteinvik,62.3432,5.8487,11.61,81,1,1.79,NO,1686081114
478,boende,-0.2167,20.8667,24.76,77,77,0.35,CD,1686081114
479,sirte,31.2089,16.5887,21.09,82,74,9.54,LY,1686081114
480,biloela,-24.4167,150.5,12.73,90,0,2.67,AU,1686081115
481,xining,36.6167,101.7667,9.76,88,100,0.35,CN,1686081115
482,kirakira,-10.4544,161.9205,25.9,86,100,2.52,SB,1686081116
483,camargo,27.6667,-105.1667,31.84,23,22,3.54,MX,1686081116
484,coruripe,-10.1256,-36.1756,24.29,90,30,3.69,BR,1686081117
485,camayenne,9.535,-13.6878,30.05,74,20,5.14,GN,1686081117
486,pelotas,-31.7719,-52.3425,22.01,60,0,4.12,BR,1686081117
487,morris,40.8334,-74.5329,26.71,43,40,4.02,US,1686081031
488,mbuji-mayi,-6.15,23.6,27.64,48,94,1.04,CD,1686081118
489,mundri,-6.9558,111.71,23.73,89,71,2.56,ID,1686081119
490,saint-gilles,43.6766,4.4302,22.05,83,0,2.06,FR,1686081119
491,seosan,36.7817,126.4522,15.96,96,91,2.91,KR,1686081120
492,dakhla,23.6848,-15.958,24.01,73,1,6.17,EH,1686081120
493,maumere,-8.6199,122.2111,24.33,74,7,1.54,ID,1686081121
494,totskoye,52.5248,52.7623,9.0,90,0,2.8,RU,1686081121
495,ndago,-4.6,34.35,19.07,55,6,5.18,TZ,1686081121
496,turiacu,-1.6633,-45.3717,26.56,86,23,2.28,BR,1686081122
497,keystone,28.1558,-82.6212,32.94,49,1,0.89,US,1686081123
498,porsgrunn,59.1405,9.6561,16.53,79,0,0.68,NO,1686081124
499,bereznik,62.8551,42.7072,4.21,87,25,2.3,RU,1686081124
500,deming,32.2687,-107.7586,29.94,26,0,5.66,US,1686081125
501,kodinar,20.7903,70.7031,28.56,82,0,5.79,IN,1686081125
502,roosevelt,33.9668,-103.4505,27.17,35,75,3.59,US,1686081126
503,kittila,67.6647,24.8936,7.08,81,98,2.57,FI,1686081126
504,salmas,38.1973,44.7653,15.83,64,1,0.46,IR,1686081127
505,yeppoon,-23.1333,150.7333,15.88,85,58,5.15,AU,1686081127
506,horta,38.5333,-28.6333,19.8,79,40,9.83,PT,1686081128
507,poronaysk,49.2167,143.1167,9.71,86,10,1.41,RU,1686081128
508,laukaa,58.7372,29.8453,12.01,77,100,1.44,RU,1686081129
509,kavaratti,10.5669,72.642,29.67,75,92,8.02,IN,1686081129
510,bluffton,32.2371,-80.8604,32.04,62,0,6.69,US,1686081130
511,mikulov,48.8056,16.6378,18.07,97,100,2.55,CZ,1686081131
512,chake chake,-5.2459,39.7666,24.26,80,0,4.5,TZ,1686081132
513,malindi,-3.2175,40.1191,26.09,78,20,4.12,KE,1686081132
514,ushibukamachi,32.1906,130.0228,19.44,86,98,2.66,JP,1686081132
515,luanda,-8.8368,13.2343,24.0,90,75,3.09,AO,1686081133
516,kudahuvadhoo,2.6708,72.8944,28.39,77,72,5.6,MV,1686081133
517,revadanda,18.5503,72.9278,28.76,78,2,3.48,IN,1686081134
518,gudauta,43.1055,40.6207,19.34,88,59,2.37,GE,1686081134
519,kidal,18.4411,1.4078,35.06,8,17,4.77,ML,1686081135
520,al bawiti,28.3492,28.8659,29.6,21,100,4.49,EG,1686081135
521,nema,57.5067,50.5011,11.22,83,100,2.33,RU,1686081136
522,pangai,-19.8,-174.35,25.06,88,75,4.63,TO,1686081136
523,el ocotito,17.25,-99.5667,34.94,26,0,3.61,MX,1686081137
524,nadym,65.5333,72.5167,14.97,53,66,4.93,RU,1686081137
525,ma'rib,15.4591,45.3253,30.35,15,38,1.47,YE,1686081137
526,khorramshahr,30.4397,48.1664,34.97,27,0,0.0,IR,1686081138
527,couva,10.4225,-61.4675,32.82,61,41,4.73,TT,1686081138
528,akureyri,65.6835,-18.0878,5.96,81,75,5.14,IS,1686081139
529,lubango,-14.9172,13.4925,16.92,39,0,1.54,AO,1686081140
530,yurga,55.7231,84.8861,20.68,63,20,2.23,RU,1686081140
531,dryden,49.7833,-92.7503,21.16,68,100,5.14,CA,1686081140
532,namibe,-15.1961,12.1522,18.74,74,3,4.76,AO,1686081141
533,chinde,26.8418,88.0763,19.89,52,1,2.49,NP,1686081141
534,bereeda,11.8704,51.0579,30.36,70,92,2.12,SO,1686081142
535,hadibu,12.65,54.0333,29.51,78,62,3.04,YE,1686081142
536,gizo,-8.103,156.8419,27.57,80,39,3.6,SB,1686081143
537,narayanpet,16.7333,77.5,33.46,33,100,6.41,IN,1686081143
538,chiredzi,-21.05,31.6667,17.18,92,0,1.35,ZW,1686081144
539,changyon,38.2508,125.0961,17.6,86,98,3.48,KP,1686081144
540,murray bridge,-35.1167,139.2667,16.18,94,66,5.62,AU,1686081145
541,molteno,-31.3968,26.3625,7.56,34,0,4.48,ZA,1686081145
542,springfield,37.2153,-93.2982,29.63,41,0,1.79,US,1686081132
543,tindouf,27.6711,-8.1474,35.25,12,0,7.72,DZ,1686081146
544,kununurra,-15.7667,128.7333,18.99,82,3,1.54,AU,1686081146
545,bomdila,27.25,92.4,12.97,82,3,3.15,IN,1686081147
546,sterling,39.0062,-77.4286,28.64,36,100,8.75,US,1686081147
547,poltavka,54.3663,71.7632,21.0,59,16,1.12,RU,1686081148
548,moses lake,47.1301,-119.2781,29.93,14,0,3.09,US,1686081148
549,sultanah,24.4926,39.5857,36.25,12,0,4.12,SA,1686081149
550,novodvinsk,64.4165,40.8122,3.05,87,100,2.08,RU,1686081150
551,tamanrasset,22.785,5.5228,30.95,10,0,5.66,DZ,1686081150
552,coyhaique,-45.5752,-72.0662,6.34,89,87,5.01,CL,1686081151
553,hlobyne,49.3878,33.2596,17.15,52,96,1.62,UA,1686081151
554,jabor,5.921,169.6434,26.59,82,100,0.63,MH,1686081152
555,kendari,-3.945,122.4989,22.07,91,9,0.9,ID,1686081152
556,muricay,7.8275,123.4782,25.21,87,100,1.36,PH,1686081153
557,greenville,35.6127,-77.3663,28.09,57,75,2.57,US,1686080886
558,ingeniero jacobacci,-41.3427,-69.5448,8.11,47,2,9.55,AR,1686081154
